{
  "restaurants": [
    {
      "id": 1,
      "name": "Angelo's at the Point",
      "county": "Jefferson County",
      "city": "Dandridge",
      "cuisine": "American Steakhouse",
      "price_range": "$$$",
      "rating": 3.8,
      "review_count": 1186,
      "address": "122 Boat Dock Drive, Dandridge, TN 37725",
      "phone": "(865) 344-7200",
      "website": "www.angelosatthepointdandridge.com",
      "hours": "Mon-Thu: 4:00 PM - 10:00 PM, Fri-Sat: 4:00 PM - 11:00 PM, Sun: 12:00 PM - 9:00 PM",
      "amenities": [
        "Outdoor Seating",
        "Full Bar",
        "Live Music",
        "Karaoke",
        "Private Events"
      ],
      "featured": true,
      "description": "Since 2006, serving hand-cut steaks, fresh fish, pub favorites and wood-fired pizzas. Features live music, karaoke, and private events with a full-service bar and seasonal tiki-bar."
    },
    {
      "id": 2,
      "name": "Off The Hook",
      "county": "Jefferson County",
      "city": "Jefferson City",
      "cuisine": "Seafood",
      "price_range": "$$",
      "rating": 4.3,
      "review_count": 189,
      "address": "2513 Black Oak Rd, Jefferson City, TN 37760",
      "phone": "(865) 350-2408",
      "website": "offthehook.getbento.com",
      "hours": "Mon-Thu: 11:00 AM - 9:00 PM, Fri-Sat: 11:00 AM - 10:00 PM, Sun: 11:00 AM - 9:00 PM",
      "amenities": [
        "Lakeside Dining",
        "Outdoor Seating",
        "Full Bar",
        "Casual Atmosphere"
      ],
      "featured": false,
      "description": "Tennessee's premier lakeside restaurant. Famous for friendly staff, casual Key West-like atmosphere, cold drinks, apps, burgers and tacos!"
    },
    {
      "id": 3,
      "name": "Bush's Family Cafe",
      "county": "Jefferson County",
      "city": "Dandridge",
      "cuisine": "American",
      "price_range": "$$",
      "rating": 4.6,
      "review_count": 650,
      "address": "3901 Hwy 411, Dandridge, TN 37725",
      "phone": "(865) 397-2400",
      "website": "www.bushbeans.com",
      "hours": "Daily: 8:00 AM - 8:00 PM",
      "amenities": [
        "Family Friendly",
        "Visitor Center",
        "Gift Shop",
        "Southern Comfort Food"
      ],
      "featured": false,
      "description": "Family restaurant connected to the famous Bush's Beans visitor center. Serving comfort food and Southern favorites."
    },
    {
      "id": 4,
      "name": "Taste of Dandridge",
      "county": "Jefferson County",
      "city": "Dandridge",
      "cuisine": "Southern",
      "price_range": "$$",
      "rating": 4.1,
      "review_count": 450,
      "address": "1033 Highway 92 S, Dandridge, TN 37725",
      "phone": "(865) 397-2722",
      "website": "www.anewtasteofdandridge.com",
      "hours": "Mon-Thu: 11:00 AM - 9:00 PM, Fri-Sat: 11:00 AM - 10:00 PM, Sun: 11:00 AM - 8:00 PM",
      "amenities": [
        "Steaks",
        "Ribs",
        "BBQ",
        "Southern Atmosphere"
      ],
      "featured": false,
      "description": "Southern Family-Owned Restaurant serving steaks, ribs & BBQ. Great food at great prices."
    },
    {
      "id": 5,
      "name": "Lisa's Country Kitchen",
      "county": "Jefferson County",
      "city": "Jefferson City",
      "cuisine": "American",
      "price_range": "$",
      "rating": 4.2,
      "review_count": 153,
      "address": "1712 N Highway 92, Jefferson City, TN 37760",
      "phone": "(865) 475-4356",
      "website": "",
      "hours": "Daily: 6:00 AM - 9:00 PM",
      "amenities": [
        "Home Cooking",
        "Comfort Food",
        "Generous Portions",
        "Local Favorite"
      ],
      "featured": false,
      "description": "Known for generous portions and friendly service. Popular for home cooking and comfort food."
    },
    {
      "id": 6,
      "name": "Dandridge Brewing Company",
      "county": "Jefferson County",
      "city": "Dandridge",
      "cuisine": "American",
      "price_range": "$$",
      "rating": 4.4,
      "review_count": 234,
      "address": "550 Hwy 92 S, Dandridge, TN 37725",
      "phone": "(865) 397-1287",
      "website": "",
      "hours": "Mon-Thu: 11:00 AM - 10:00 PM, Fri-Sat: 11:00 AM - 11:00 PM, Sun: 12:00 PM - 8:00 PM",
      "amenities": [
        "Craft Beer",
        "Outdoor Seating",
        "Local Brewery",
        "Pub Food"
      ],
      "featured": false,
      "description": "Local brewery with craft beers and American pub food."
    },
    {
      "id": 7,
      "name": "The Creek Cafe",
      "county": "Jefferson County",
      "city": "Jefferson City",
      "cuisine": "American",
      "price_range": "$",
      "rating": 4.0,
      "review_count": 98,
      "address": "475 E Broadway Blvd, Jefferson City, TN 37760",
      "phone": "(865) 475-4748",
      "website": "",
      "hours": "Tue-Sat: 11:00 AM - 9:00 PM, Sun: 11:00 AM - 8:00 PM, Closed Mon",
      "amenities": [
        "Farm-to-Fork",
        "Local Sourcing",
        "Fresh Ingredients",
        "Traditional Recipes"
      ],
      "featured": false,
      "description": "Farm-to-fork eatery serving incredible brunch options Tuesday-Saturday and fresh, locally sourced food."
    },
    {
      "id": 8,
      "name": "Gondolier Italian Restaurant",
      "county": "Jefferson County",
      "city": "Jefferson City",
      "cuisine": "Italian",
      "price_range": "$$",
      "rating": 4.1,
      "review_count": 137,
      "address": "544 E. Broadway Blvd, Jefferson City, TN 37760",
      "phone": "(865) 475-9840",
      "website": "gondolierpizza.com",
      "hours": "Mon-Thu: 11:00 AM - 10:00 PM, Fri-Sat: 11:00 AM - 11:00 PM, Sun: 12:00 PM - 9:00 PM",
      "amenities": [
        "Pizza",
        "Italian Cuisine",
        "Family Dining",
        "Casual"
      ],
      "featured": false,
      "description": "Traditional Italian restaurant with pizza, pasta, and classic Italian dishes."
    },
    {
      "id": 9,
      "name": "El Sazon Mexican Restaurant",
      "county": "Jefferson County",
      "city": "Jefferson City",
      "cuisine": "Mexican",
      "price_range": "$",
      "rating": 4.1,
      "review_count": 137,
      "address": "652 E Broadway Blvd, Jefferson City, TN 37760",
      "phone": "(865) 471-4748",
      "website": "elsazonjefferson.com",
      "hours": "Sun-Thu: 11:00 AM - 10:00 PM, Fri-Sat: 11:00 AM - 11:00 PM",
      "amenities": [
        "Authentic Mexican",
        "Daily Service",
        "Family Friendly",
        "Traditional Recipes"
      ],
      "featured": false,
      "description": "Authentic Mexican restaurant open 7 days a week. All your favorites served daily."
    },
    {
      "id": 10,
      "name": "The Hoagie Shop",
      "county": "Jefferson County",
      "city": "Jefferson City",
      "cuisine": "American",
      "price_range": "$",
      "rating": 4.2,
      "review_count": 60,
      "address": "Downtown Jefferson City, TN 37760",
      "phone": "(865) 475-2625",
      "website": "",
      "hours": "Mon-Fri: 7:00 AM - 3:00 PM, Sat: 8:00 AM - 2:00 PM, Closed Sun",
      "amenities": [
        "Sandwiches",
        "Subs",
        "Quick Service",
        "Local Favorite"
      ],
      "featured": false,
      "description": "Local sandwich shop known for fresh hoagies and quick service."
    },
    {
      "id": 11,
      "name": "Captain's Galley",
      "county": "Jefferson County",
      "city": "Dandridge",
      "cuisine": "Seafood",
      "price_range": "$$",
      "rating": 4.0,
      "review_count": 234,
      "address": "522 Patriot Dr, Dandridge, TN 37725",
      "phone": "(865) 397-3474",
      "website": "",
      "hours": "Tue-Sat: 11:00 AM - 9:00 PM, Sun: 11:00 AM - 8:00 PM, Closed Mon",
      "amenities": [
        "Fresh Seafood",
        "Nautical Theme",
        "Fish & Chips",
        "Local Favorite"
      ],
      "featured": false,
      "description": "Seafood restaurant with fresh catches and nautical atmosphere. Popular for fish & chips."
    },
    {
      "id": 12,
      "name": "Millstone Restaurant & Country Store",
      "county": "Jefferson County",
      "city": "Dandridge",
      "cuisine": "American",
      "price_range": "$$",
      "rating": 4.3,
      "review_count": 73,
      "address": "Near Dandridge, TN 37725",
      "phone": "(865) 397-2088",
      "website": "",
      "hours": "Daily: 8:00 AM - 8:00 PM",
      "amenities": [
        "Country Store",
        "Southern Comfort",
        "Gift Shop",
        "Charming Atmosphere"
      ],
      "featured": false,
      "description": "Charming establishment offering unique dining experience and country-inspired goods."
    },
    {
      "id": 13,
      "name": "Owens Restaurant",
      "county": "Jefferson County",
      "city": "Dandridge",
      "cuisine": "American",
      "price_range": "$$",
      "rating": 4.2,
      "review_count": 156,
      "address": "Dandridge, TN 37725",
      "phone": "(865) 397-4567",
      "website": "",
      "hours": "Daily: 7:00 AM - 9:00 PM",
      "amenities": [
        "Family Dining",
        "Southern Comfort",
        "Local Favorite",
        "Generous Portions"
      ],
      "featured": false,
      "description": "Family restaurant known for Southern comfort food and generous portions."
    },
    {
      "id": 14,
      "name": "Perkins Restaurant & Bakery",
      "county": "Jefferson County",
      "city": "Dandridge",
      "cuisine": "American",
      "price_range": "$$",
      "rating": 4.0,
      "review_count": 245,
      "address": "501 Patriot Dr, Dandridge, TN 37725",
      "phone": "(865) 397-2200",
      "website": "www.perkinsrestaurants.com",
      "hours": "Daily: 6:00 AM - 11:00 PM",
      "amenities": [
        "Breakfast All Day",
        "Kids Menu",
        "Senior Menu",
        "Bakery"
      ],
      "featured": false,
      "description": "Family restaurant with breakfast all day, bakery items, and healthy options."
    },
    {
      "id": 15,
      "name": "Ruby Tuesday",
      "county": "Jefferson County",
      "city": "Dandridge",
      "cuisine": "American",
      "price_range": "$$",
      "rating": 3.9,
      "review_count": 189,
      "address": "523 Patriot Drive, Dandridge, TN 37725",
      "phone": "(865) 397-3456",
      "website": "www.rubytuesday.com",
      "hours": "Daily: 11:00 AM - 10:00 PM",
      "amenities": [
        "Salad Bar",
        "Burgers",
        "Family Friendly",
        "Chain Restaurant"
      ],
      "featured": false,
      "description": "American casual dining with famous salad bar and fresh burgers."
    },
    {
      "id": 16,
      "name": "Indian Creek Market and Deli",
      "county": "Jefferson County",
      "city": "Dandridge",
      "cuisine": "American",
      "price_range": "$",
      "rating": 4.1,
      "review_count": 67,
      "address": "Dandridge, TN 37725",
      "phone": "(865) 397-7890",
      "website": "",
      "hours": "Mon-Sat: 6:00 AM - 8:00 PM, Sun: 7:00 AM - 7:00 PM",
      "amenities": [
        "Deli",
        "Market",
        "Quick Service",
        "Local"
      ],
      "featured": false,
      "description": "Local market and deli with fresh sandwiches and convenience items."
    },
    {
      "id": 17,
      "name": "Subway",
      "county": "Jefferson County",
      "city": "Dandridge",
      "cuisine": "American",
      "price_range": "$",
      "rating": 3.8,
      "review_count": 89,
      "address": "125 E Meeting Street, Dandridge, TN 37725",
      "phone": "(865) 397-5678",
      "website": "www.subway.com",
      "hours": "Daily: 7:00 AM - 10:00 PM",
      "amenities": [
        "Sandwiches",
        "Quick Service",
        "Healthy Options",
        "Chain"
      ],
      "featured": false,
      "description": "Fresh sandwiches made to order with healthy options."
    },
    {
      "id": 18,
      "name": "McDonald's",
      "county": "Jefferson County",
      "city": "Dandridge",
      "cuisine": "Fast Food",
      "price_range": "$",
      "rating": 3.6,
      "review_count": 234,
      "address": "550 Hwy 92 S, Dandridge, TN 37725",
      "phone": "(865) 397-1234",
      "website": "www.mcdonalds.com",
      "hours": "Daily: 5:00 AM - 11:00 PM",
      "amenities": [
        "Fast Food",
        "Drive-Thru",
        "Breakfast",
        "Kids Menu"
      ],
      "featured": false,
      "description": "Fast food restaurant with burgers, fries, and breakfast items."
    },
    {
      "id": 19,
      "name": "Taco Bell",
      "county": "Jefferson County",
      "city": "Dandridge",
      "cuisine": "Mexican Fast Food",
      "price_range": "$",
      "rating": 3.7,
      "review_count": 156,
      "address": "702 Highway 92 S, Dandridge, TN 37725",
      "phone": "(865) 397-2345",
      "website": "www.tacobell.com",
      "hours": "Daily: 7:00 AM - 12:00 AM",
      "amenities": [
        "Mexican Fast Food",
        "Drive-Thru",
        "Late Night",
        "Quick Service"
      ],
      "featured": false,
      "description": "Mexican-inspired fast food with tacos, burritos, and quesadillas."
    },
    {
      "id": 20,
      "name": "Sonic Drive-In",
      "county": "Jefferson County",
      "city": "Dandridge",
      "cuisine": "Fast Food",
      "price_range": "$",
      "rating": 3.8,
      "review_count": 178,
      "address": "1033 Highway 92 S, Dandridge, TN 37725",
      "phone": "(865) 397-3456",
      "website": "www.sonicdrivein.com",
      "hours": "Daily: 6:00 AM - 11:00 PM",
      "amenities": [
        "Drive-In",
        "Carhops",
        "Ice Cream",
        "Burgers"
      ],
      "featured": false,
      "description": "Drive-in restaurant with carhop service, burgers, and ice cream treats."
    },
    {
      "id": 21,
      "name": "Waffle House",
      "county": "Jefferson County",
      "city": "Dandridge",
      "cuisine": "American",
      "price_range": "$",
      "rating": 3.9,
      "review_count": 145,
      "address": "Near Dandridge, TN 37725",
      "phone": "(865) 397-4567",
      "website": "www.wafflehouse.com",
      "hours": "24/7",
      "amenities": [
        "24 Hour",
        "Breakfast",
        "Waffles",
        "Southern"
      ],
      "featured": false,
      "description": "24-hour diner famous for waffles, hash browns, and Southern breakfast."
    },
    {
      "id": 22,
      "name": "Hardee's",
      "county": "Jefferson County",
      "city": "Jefferson City",
      "cuisine": "Fast Food",
      "price_range": "$",
      "rating": 3.7,
      "review_count": 123,
      "address": "546 E Broadway Blvd, Jefferson City, TN 37760",
      "phone": "(865) 475-1234",
      "website": "www.hardees.com",
      "hours": "Daily: 5:00 AM - 11:00 PM",
      "amenities": [
        "Fast Food",
        "Breakfast",
        "Burgers",
        "Drive-Thru"
      ],
      "featured": false,
      "description": "Fast food restaurant known for thick burgers and breakfast biscuits."
    },
    {
      "id": 23,
      "name": "KFC",
      "county": "Jefferson County",
      "city": "Jefferson City",
      "cuisine": "Fast Food",
      "price_range": "$",
      "rating": 3.6,
      "review_count": 167,
      "address": "281 E. Broadway Blvd, Jefferson City, TN 37760",
      "phone": "(865) 475-2345",
      "website": "www.kfc.com",
      "hours": "Daily: 10:00 AM - 10:00 PM",
      "amenities": [
        "Fried Chicken",
        "Drive-Thru",
        "Family Meals",
        "Southern"
      ],
      "featured": false,
      "description": "Famous for Original Recipe fried chicken and Southern sides."
    },
    {
      "id": 24,
      "name": "Bojangles",
      "county": "Jefferson County",
      "city": "Jefferson City",
      "cuisine": "Fast Food",
      "price_range": "$",
      "rating": 3.8,
      "review_count": 134,
      "address": "103 Mossy Creek Drive, Jefferson City, TN 37760",
      "phone": "(865) 475-3456",
      "website": "www.bojangles.com",
      "hours": "Daily: 5:00 AM - 10:00 PM",
      "amenities": [
        "Chicken & Biscuits",
        "Southern",
        "Breakfast",
        "Drive-Thru"
      ],
      "featured": false,
      "description": "Famous Chicken 'n Biscuits with distinctive flavors and Southern hospitality."
    },
    {
      "id": 25,
      "name": "Patriot Wood Fired Pizza",
      "county": "Jefferson County",
      "city": "Jefferson City",
      "cuisine": "Pizza",
      "price_range": "$$",
      "rating": 5.0,
      "review_count": 13,
      "address": "Jefferson City, TN 37760",
      "phone": "(865) 475-4567",
      "website": "",
      "hours": "Wed-Sun: 4:00 PM - 9:00 PM, Closed Mon-Tue",
      "amenities": [
        "Wood Fired",
        "Artisan Pizza",
        "Local",
        "Fresh Ingredients"
      ],
      "featured": false,
      "description": "Artisan wood-fired pizza with fresh, local ingredients."
    },
    {
      "id": 26,
      "name": "J.C. Holdway",
      "county": "Knox County",
      "city": "Knoxville",
      "cuisine": "American",
      "price_range": "$$$$",
      "rating": 4.8,
      "review_count": 1245,
      "address": "501 Union Ave, Knoxville, TN 37902",
      "phone": "(865) 312-9050",
      "website": "www.jcholdway.com",
      "hours": "Tue-Sat: 5:00 PM - 10:00 PM, Closed Sun-Mon",
      "amenities": [
        "Fine Dining",
        "Chef-Driven",
        "Seasonal Menu",
        "Wine List"
      ],
      "featured": true,
      "description": "Acclaimed chef-driven restaurant specializing in locally-sourced, seasonal American cuisine."
    },
    {
      "id": 27,
      "name": "The Kennedy",
      "county": "Knox County",
      "city": "Knoxville",
      "cuisine": "American",
      "price_range": "$$$",
      "rating": 4.6,
      "review_count": 892,
      "address": "425 Union Ave, Knoxville, TN 37902",
      "phone": "(865) 633-1426",
      "website": "thekennedyknoxville.com",
      "hours": "Mon-Thu: 4:00 PM - 10:00 PM, Fri-Sat: 4:00 PM - 11:00 PM, Sun: 4:00 PM - 9:00 PM",
      "amenities": [
        "Upscale Dining",
        "Cocktails",
        "Downtown",
        "Modern American"
      ],
      "featured": false,
      "description": "Upscale dining experience with modern American cuisine and craft cocktails in downtown Knoxville."
    },
    {
      "id": 28,
      "name": "Stock & Barrel",
      "county": "Knox County",
      "city": "Knoxville",
      "cuisine": "American",
      "price_range": "$$",
      "rating": 4.5,
      "review_count": 1567,
      "address": "35 Market Square, Knoxville, TN 37902",
      "phone": "(865) 766-2075",
      "website": "",
      "hours": "Daily: 11:00 AM - 11:00 PM",
      "amenities": [
        "Burgers",
        "Market Square",
        "Craft Beer",
        "Casual"
      ],
      "featured": false,
      "description": "Gourmet burgers and craft beer in the heart of Market Square."
    },
    {
      "id": 29,
      "name": "Tupelo Honey",
      "county": "Knox County",
      "city": "Knoxville",
      "cuisine": "Southern",
      "price_range": "$$",
      "rating": 4.4,
      "review_count": 2134,
      "address": "1 Market Square, Knoxville, TN 37902",
      "phone": "(865) 522-0004",
      "website": "tupelohoneycafe.com",
      "hours": "Daily: 9:00 AM - 9:00 PM",
      "amenities": [
        "Southern Cuisine",
        "Brunch",
        "Scratch-Made",
        "Responsible Sourcing"
      ],
      "featured": false,
      "description": "Scratch-made & responsibly sourced Southern food for brunch, lunch, and dinner."
    },
    {
      "id": 30,
      "name": "Lonesome Dove",
      "county": "Knox County",
      "city": "Knoxville",
      "cuisine": "American",
      "price_range": "$$$$",
      "rating": 4.7,
      "review_count": 1089,
      "address": "100 N Central St, Knoxville, TN 37902",
      "phone": "(865) 673-0060",
      "website": "www.lonesomedoveknoxville.com",
      "hours": "Tue-Sat: 5:00 PM - 10:00 PM, Closed Sun-Mon",
      "amenities": [
        "Western Bistro",
        "Fine Dining",
        "Old City",
        "Premium Steaks"
      ],
      "featured": false,
      "description": "Premier dining destination in Old City, specializing in Western-inspired fine dining."
    },
    {
      "id": 31,
      "name": "Kefi",
      "county": "Knox County",
      "city": "Knoxville",
      "cuisine": "Mediterranean",
      "price_range": "$$$",
      "rating": 4.6,
      "review_count": 756,
      "address": "13 Market Square, Knoxville, TN 37902",
      "phone": "(865) 544-4274",
      "website": "",
      "hours": "Tue-Sat: 5:00 PM - 10:00 PM, Closed Sun-Mon",
      "amenities": [
        "Mediterranean",
        "Market Square",
        "Wine Bar",
        "Intimate"
      ],
      "featured": false,
      "description": "Mediterranean cuisine with an extensive wine list in an intimate Market Square setting."
    },
    {
      "id": 32,
      "name": "A Dopo Sourdough Pizza",
      "county": "Knox County",
      "city": "Knoxville",
      "cuisine": "Pizza",
      "price_range": "$$",
      "rating": 4.5,
      "review_count": 1234,
      "address": "516 Williams St, Knoxville, TN 37902",
      "phone": "(865) 888-5067",
      "website": "",
      "hours": "Tue-Sat: 5:00 PM - 10:00 PM, Closed Sun-Mon",
      "amenities": [
        "Sourdough Pizza",
        "Artisan",
        "Local Ingredients",
        "Craft Beer"
      ],
      "featured": false,
      "description": "Artisan sourdough pizza made with local ingredients and craft beer selection."
    },
    {
      "id": 33,
      "name": "The Tomato Head",
      "county": "Knox County",
      "city": "Knoxville",
      "cuisine": "Pizza",
      "price_range": "$$",
      "rating": 4.3,
      "review_count": 1456,
      "address": "12 Market Square, Knoxville, TN 37902",
      "phone": "(865) 637-4067",
      "website": "",
      "hours": "Daily: 11:00 AM - 10:00 PM",
      "amenities": [
        "Pizza",
        "Sandwiches",
        "Market Square",
        "Local Favorite"
      ],
      "featured": false,
      "description": "Local favorite for pizza and sandwiches in Market Square since 1999."
    },
    {
      "id": 34,
      "name": "Yassin's Falafel House",
      "county": "Knox County",
      "city": "Knoxville",
      "cuisine": "Middle Eastern",
      "price_range": "$",
      "rating": 4.7,
      "review_count": 2345,
      "address": "706 Walnut St, Knoxville, TN 37902",
      "phone": "(865) 673-2700",
      "website": "",
      "hours": "Mon-Sat: 11:00 AM - 9:00 PM, Closed Sun",
      "amenities": [
        "Falafel",
        "Middle Eastern",
        "Vegetarian Friendly",
        "Quick Service"
      ],
      "featured": false,
      "description": "Authentic Middle Eastern cuisine with the best falafel in Knoxville."
    },
    {
      "id": 35,
      "name": "Copper Cellar",
      "county": "Knox County",
      "city": "Knoxville",
      "cuisine": "American",
      "price_range": "$$$",
      "rating": 4.2,
      "review_count": 1789,
      "address": "1807 Cumberland Ave, Knoxville, TN 37916",
      "phone": "(865) 673-3411",
      "website": "coppercellar.com",
      "hours": "Daily: 11:00 AM - 10:00 PM",
      "amenities": [
        "Steaks",
        "Seafood",
        "Wine List",
        "West Knoxville"
      ],
      "featured": false,
      "description": "Award-winning restaurant offering classic and regionally-inspired entrees with extensive wine list."
    },
    {
      "id": 36,
      "name": "Calhoun's on the River",
      "county": "Knox County",
      "city": "Knoxville",
      "cuisine": "BBQ",
      "price_range": "$$",
      "rating": 4.3,
      "review_count": 2156,
      "address": "400 Neyland Dr, Knoxville, TN 37902",
      "phone": "(865) 673-3355",
      "website": "www.calhouns.com",
      "hours": "Daily: 11:00 AM - 10:00 PM",
      "amenities": [
        "BBQ Ribs",
        "River Views",
        "Outdoor Seating",
        "Tennessee River"
      ],
      "featured": false,
      "description": "Famous for barbecue ribs with beautiful Tennessee River views."
    },
    {
      "id": 37,
      "name": "OliBea",
      "county": "Knox County",
      "city": "Knoxville",
      "cuisine": "American",
      "price_range": "$$",
      "rating": 4.4,
      "review_count": 1345,
      "address": "211 E Jackson Ave, Knoxville, TN 37915",
      "phone": "(865) 200-5570",
      "website": "",
      "hours": "Daily: 7:00 AM - 3:00 PM",
      "amenities": [
        "Breakfast",
        "Brunch",
        "Coffee",
        "Local Ingredients"
      ],
      "featured": false,
      "description": "Popular breakfast and brunch spot with locally-sourced ingredients and great coffee."
    },
    {
      "id": 38,
      "name": "Cafe 4",
      "county": "Knox County",
      "city": "Knoxville",
      "cuisine": "American",
      "price_range": "$$",
      "rating": 4.5,
      "review_count": 1242,
      "address": "4 Market Square, Knoxville, TN 37902",
      "phone": "(865) 544-4144",
      "website": "",
      "hours": "Daily: 11:00 AM - 10:00 PM",
      "amenities": [
        "Market Square",
        "Patio",
        "American Cuisine",
        "Bar"
      ],
      "featured": false,
      "description": "Market Square restaurant with American cuisine and outdoor patio dining."
    },
    {
      "id": 39,
      "name": "Balter Beerworks",
      "county": "Knox County",
      "city": "Knoxville",
      "cuisine": "American",
      "price_range": "$$",
      "rating": 4.4,
      "review_count": 987,
      "address": "100 S Broadway, Knoxville, TN 37902",
      "phone": "(865) 999-4409",
      "website": "",
      "hours": "Daily: 11:00 AM - 11:00 PM",
      "amenities": [
        "Craft Beer",
        "Brewery",
        "Pub Food",
        "Downtown"
      ],
      "featured": false,
      "description": "Local brewery with craft beer and elevated pub food in downtown Knoxville."
    },
    {
      "id": 40,
      "name": "Emilia",
      "county": "Knox County",
      "city": "Knoxville",
      "cuisine": "Italian",
      "price_range": "$$$",
      "rating": 4.6,
      "review_count": 678,
      "address": "5 Market Square, Knoxville, TN 37902",
      "phone": "(865) 999-4409",
      "website": "",
      "hours": "Tue-Sat: 5:00 PM - 10:00 PM, Closed Sun-Mon",
      "amenities": [
        "Italian",
        "Pasta",
        "Wine",
        "Market Square"
      ],
      "featured": false,
      "description": "Authentic Italian cuisine with handmade pasta and extensive wine selection."
    },
    {
      "id": 41,
      "name": "Aubrey's Powell",
      "county": "Knox County",
      "city": "Powell",
      "cuisine": "American",
      "price_range": "$$",
      "rating": 4.3,
      "review_count": 260,
      "address": "214 E. Emory Road, Powell, TN 37849",
      "phone": "(865) 938-2724",
      "website": "aubreysrestaurants.com",
      "hours": "Daily: 11:00 AM - 10:00 PM",
      "amenities": [
        "Family Dining",
        "Burgers",
        "Sandwiches",
        "Salads"
      ],
      "featured": false,
      "description": "Family restaurant with burgers, sandwiches, and specialty salads."
    },
    {
      "id": 42,
      "name": "Scotties of Powell",
      "county": "Knox County",
      "city": "Powell",
      "cuisine": "American",
      "price_range": "$",
      "rating": 4.2,
      "review_count": 89,
      "address": "7143 Clinton Hwy, Powell, TN 37849",
      "phone": "(865) 938-4567",
      "website": "",
      "hours": "Mon-Sat: 6:00 AM - 2:00 PM, Closed Sun",
      "amenities": [
        "Breakfast",
        "Cash Only",
        "Local Favorite",
        "Home Cooking"
      ],
      "featured": false,
      "description": "Local breakfast spot known for home cooking and reasonable prices. Cash only."
    },
    {
      "id": 43,
      "name": "Wild Wing Cafe",
      "county": "Knox County",
      "city": "Powell",
      "cuisine": "American",
      "price_range": "$$",
      "rating": 3.7,
      "review_count": 81,
      "address": "Powell, TN 37849",
      "phone": "(865) 938-5678",
      "website": "www.wildwingcafe.com",
      "hours": "Daily: 11:00 AM - 11:00 PM",
      "amenities": [
        "Wings",
        "Sports Bar",
        "Live Music",
        "Game Day"
      ],
      "featured": false,
      "description": "Sports bar with wings, live music, and game day atmosphere."
    },
    {
      "id": 44,
      "name": "El Rey Mexican Restaurant",
      "county": "Knox County",
      "city": "Powell",
      "cuisine": "Mexican",
      "price_range": "$$",
      "rating": 4.3,
      "review_count": 156,
      "address": "Powell, TN 37849",
      "phone": "(865) 938-7890",
      "website": "elreypowell.com",
      "hours": "Daily: 11:00 AM - 10:00 PM",
      "amenities": [
        "Authentic Mexican",
        "Traditional Recipes",
        "Family Friendly",
        "Fresh Ingredients"
      ],
      "featured": false,
      "description": "Authentic Mexican cuisine inspired by traditional recipes and modern cooking styles."
    },
    {
      "id": 45,
      "name": "Southern Kitchen Sandwich Co",
      "county": "Knox County",
      "city": "Powell",
      "cuisine": "American",
      "price_range": "$",
      "rating": 4.4,
      "review_count": 78,
      "address": "2307 W Emory Road, Powell, TN 37849",
      "phone": "(865) 938-4800",
      "website": "southernkitchensandwichco.com",
      "hours": "Mon & Wed: 10:00 AM - 6:00 PM, Tue & Thu: 10:00 AM - 5:00 PM, Fri: 10:00 AM - 4:00 PM",
      "amenities": [
        "Sandwiches",
        "Local",
        "Fresh Made",
        "Quick Service"
      ],
      "featured": false,
      "description": "Local sandwich shop with fresh-made sandwiches and friendly service."
    },
    {
      "id": 46,
      "name": "Seasons Innovative Bar & Grille",
      "county": "Knox County",
      "city": "Farragut",
      "cuisine": "American",
      "price_range": "$$$",
      "rating": 4.3,
      "review_count": 341,
      "address": "Farragut, TN 37934",
      "phone": "(865) 671-1234",
      "website": "seasonsbarandgrille.com",
      "hours": "Daily: 11:00 AM - 10:00 PM",
      "amenities": [
        "Innovative Cuisine",
        "Bar",
        "Upscale Casual",
        "Award Winning"
      ],
      "featured": false,
      "description": "Knoxville's culinary gem with innovative cuisine and award-winning dishes."
    },
    {
      "id": 47,
      "name": "Water Into Wine",
      "county": "Knox County",
      "city": "Farragut",
      "cuisine": "American",
      "price_range": "$$$",
      "rating": 4.5,
      "review_count": 234,
      "address": "Farragut, TN 37934",
      "phone": "(865) 671-2345",
      "website": "waterintowineknoxville.com",
      "hours": "Tue-Sat: 5:00 PM - 10:00 PM, Closed Sun-Mon",
      "amenities": [
        "Mixologist",
        "Craft Cocktails",
        "Fresh Ingredients",
        "West Knoxville"
      ],
      "featured": false,
      "description": "West Knoxville's premier mixologist destination with craft cocktails made from fresh ingredients."
    },
    {
      "id": 48,
      "name": "Lakeside Tavern",
      "county": "Knox County",
      "city": "Farragut",
      "cuisine": "American",
      "price_range": "$$$",
      "rating": 4.4,
      "review_count": 189,
      "address": "10911 Concord Park Dr, Knoxville, TN 37934",
      "phone": "(865) 671-3456",
      "website": "lakeside-tavern.com",
      "hours": "Daily: 11:00 AM - 10:00 PM",
      "amenities": [
        "Steaks",
        "Seafood",
        "Hardwood Grilled",
        "Lakeside"
      ],
      "featured": false,
      "description": "Hand-cut aged steaks and fresh seafood grilled over hardwood coals."
    },
    {
      "id": 49,
      "name": "Elkmont Station",
      "county": "Knox County",
      "city": "Farragut",
      "cuisine": "American",
      "price_range": "$$",
      "rating": 4.8,
      "review_count": 8,
      "address": "Farragut, TN 37934",
      "phone": "(865) 671-4567",
      "website": "elkmontstationknox.com",
      "hours": "Daily: 11:00 AM - 9:00 PM",
      "amenities": [
        "Appalachian Inspired",
        "Handcrafted",
        "Smoky Mountains",
        "Outdoor Seating"
      ],
      "featured": false,
      "description": "Handcrafted food and drinks honoring the spirit of the Smoky Mountains."
    },
    {
      "id": 50,
      "name": "First Watch",
      "county": "Knox County",
      "city": "Farragut",
      "cuisine": "American",
      "price_range": "$$",
      "rating": 4.1,
      "review_count": 167,
      "address": "111 Lovell Road, Farragut, TN 37934",
      "phone": "(865) 671-3447",
      "website": "www.firstwatch.com",
      "hours": "Daily: 7:00 AM - 2:30 PM",
      "amenities": [
        "Breakfast",
        "Brunch",
        "Fresh Ingredients",
        "Healthy Options"
      ],
      "featured": false,
      "description": "Breakfast and brunch restaurant with fresh ingredients and healthy options."
    },
    {
      "id": 51,
      "name": "Just Divine Tea Room",
      "county": "Knox County",
      "city": "Halls",
      "cuisine": "American",
      "price_range": "$$",
      "rating": 4.5,
      "review_count": 14,
      "address": "Halls, TN 37918",
      "phone": "(865) 922-1234",
      "website": "",
      "hours": "Tue-Sat: 11:00 AM - 3:00 PM, Closed Sun-Mon",
      "amenities": [
        "Tea Room",
        "Lunch",
        "Elegant",
        "Local"
      ],
      "featured": false,
      "description": "Elegant tea room offering refined lunch experience in Halls."
    },
    {
      "id": 52,
      "name": "Plaza Mexico",
      "county": "Knox County",
      "city": "Halls",
      "cuisine": "Mexican",
      "price_range": "$$",
      "rating": 4.7,
      "review_count": 18,
      "address": "Halls, TN 37918",
      "phone": "(865) 922-2345",
      "website": "",
      "hours": "Daily: 11:00 AM - 9:00 PM",
      "amenities": [
        "Authentic Mexican",
        "Family Friendly",
        "Traditional",
        "Fresh"
      ],
      "featured": false,
      "description": "Authentic Mexican restaurant with traditional flavors and family atmosphere."
    },
    {
      "id": 53,
      "name": "Kobe Japanese Grill",
      "county": "Knox County",
      "city": "Halls",
      "cuisine": "Japanese",
      "price_range": "$$",
      "rating": 3.8,
      "review_count": 24,
      "address": "Halls, TN 37918",
      "phone": "(865) 922-3456",
      "website": "",
      "hours": "Mon-Sat: 11:00 AM - 9:00 PM, Closed Sun",
      "amenities": [
        "Japanese",
        "Hibachi",
        "Sushi",
        "Grill"
      ],
      "featured": false,
      "description": "Japanese restaurant with hibachi grill and sushi options."
    },
    {
      "id": 54,
      "name": "Pig-N-Out",
      "county": "Knox County",
      "city": "Halls",
      "cuisine": "BBQ",
      "price_range": "$",
      "rating": 3.8,
      "review_count": 4,
      "address": "Halls, TN 37918",
      "phone": "(865) 922-4567",
      "website": "",
      "hours": "Wed-Sat: 11:00 AM - 8:00 PM, Closed Sun-Tue",
      "amenities": [
        "BBQ",
        "Local",
        "Casual",
        "Takeout"
      ],
      "featured": false,
      "description": "Local BBQ spot with casual atmosphere and takeout options."
    },
    {
      "id": 55,
      "name": "Cancun Restaurant",
      "county": "Knox County",
      "city": "Halls",
      "cuisine": "Mexican",
      "price_range": "$$",
      "rating": 4.2,
      "review_count": 67,
      "address": "Halls, TN 37918",
      "phone": "(865) 922-5678",
      "website": "eatatcancuncrippen.com",
      "hours": "Daily: 11:00 AM - 9:00 PM",
      "amenities": [
        "Mexican Grill",
        "Cantina",
        "Family Environment",
        "Fajitas"
      ],
      "featured": false,
      "description": "Mexican Grill & Cantina with laid back family environment serving tamales to sizzling fajitas."
    },
    {
      "id": 56,
      "name": "Amber Restaurant",
      "county": "Knox County",
      "city": "Halls",
      "cuisine": "American",
      "price_range": "$$",
      "rating": 4.1,
      "review_count": 89,
      "address": "Halls, TN 37918",
      "phone": "(865) 922-6789",
      "website": "",
      "hours": "Daily: 7:00 AM - 9:00 PM",
      "amenities": [
        "Community Staple",
        "Family Friendly",
        "Local Favorite",
        "50 Years"
      ],
      "featured": false,
      "description": "Community staple for almost 50 years, serving the Halls area with family-friendly dining."
    },
    {
      "id": 57,
      "name": "Marty's Diner And Deli",
      "county": "Knox County",
      "city": "Halls",
      "cuisine": "American",
      "price_range": "$",
      "rating": 4.0,
      "review_count": 45,
      "address": "311 Tigrett Street, Halls, TN 37918",
      "phone": "(865) 922-7890",
      "website": "",
      "hours": "Mon-Fri: 6:00 AM - 3:00 PM, Closed Weekends",
      "amenities": [
        "Diner",
        "Deli",
        "Comfort Food",
        "Local"
      ],
      "featured": false,
      "description": "Local diner and deli with comfort food and daily specials."
    },
    {
      "id": 58,
      "name": "Sonny's Original Southern Pub",
      "county": "Knox County",
      "city": "Halls",
      "cuisine": "American",
      "price_range": "$$",
      "rating": 4.3,
      "review_count": 78,
      "address": "Halls, TN 37918",
      "phone": "(865) 922-8901",
      "website": "",
      "hours": "Daily: 11:00 AM - 11:00 PM",
      "amenities": [
        "Southern Pub",
        "Local",
        "Casual",
        "Bar"
      ],
      "featured": false,
      "description": "Original Southern pub with local atmosphere and casual dining."
    },
    {
      "id": 59,
      "name": "Sunrise Deli",
      "county": "Knox County",
      "city": "Halls",
      "cuisine": "American",
      "price_range": "$",
      "rating": 4.1,
      "review_count": 34,
      "address": "Halls, TN 37918",
      "phone": "(865) 922-9012",
      "website": "",
      "hours": "Mon-Sat: 7:00 AM - 3:00 PM, Closed Sun",
      "amenities": [
        "Deli",
        "Breakfast",
        "Sandwiches",
        "Quick Service"
      ],
      "featured": false,
      "description": "Local deli with breakfast options and fresh sandwiches."
    },
    {
      "id": 60,
      "name": "The Burgers",
      "county": "Knox County",
      "city": "Halls",
      "cuisine": "American",
      "price_range": "$",
      "rating": 4.2,
      "review_count": 56,
      "address": "Halls, TN 37918",
      "phone": "(865) 922-0123",
      "website": "",
      "hours": "Daily: 11:00 AM - 9:00 PM",
      "amenities": [
        "Burgers",
        "Casual",
        "Local",
        "Quick Service"
      ],
      "featured": false,
      "description": "Local burger joint with casual atmosphere and quick service."
    },
    {
      "id": 61,
      "name": "Chow Hall",
      "county": "Knox County",
      "city": "Halls",
      "cuisine": "American",
      "price_range": "$",
      "rating": 3.9,
      "review_count": 23,
      "address": "Halls, TN 37918",
      "phone": "(865) 922-1234",
      "website": "",
      "hours": "Daily: 11:00 AM - 8:00 PM",
      "amenities": [
        "Casual Dining",
        "Local",
        "Family Friendly",
        "Comfort Food"
      ],
      "featured": false,
      "description": "Casual dining spot with comfort food and family-friendly atmosphere."
    },
    {
      "id": 62,
      "name": "El Metate",
      "county": "Knox County",
      "city": "Halls",
      "cuisine": "Mexican",
      "price_range": "$",
      "rating": 4.4,
      "review_count": 67,
      "address": "Halls, TN 37918",
      "phone": "(865) 922-2345",
      "website": "",
      "hours": "Daily: 11:00 AM - 9:00 PM",
      "amenities": [
        "Authentic Mexican",
        "Traditional",
        "Family Owned",
        "Fresh"
      ],
      "featured": false,
      "description": "Authentic Mexican restaurant with traditional recipes and fresh ingredients."
    },
    {
      "id": 63,
      "name": "Tokyo & Mandarin",
      "county": "Knox County",
      "city": "Halls",
      "cuisine": "Asian",
      "price_range": "$$",
      "rating": 4.0,
      "review_count": 45,
      "address": "Halls, TN 37918",
      "phone": "(865) 922-3456",
      "website": "",
      "hours": "Mon-Sat: 11:00 AM - 9:00 PM, Closed Sun",
      "amenities": [
        "Japanese",
        "Chinese",
        "Sushi",
        "Asian Fusion"
      ],
      "featured": false,
      "description": "Asian fusion restaurant offering Japanese and Chinese cuisine with sushi options."
    },
    {
      "id": 64,
      "name": "Patches BBQ & More",
      "county": "Knox County",
      "city": "Halls",
      "cuisine": "BBQ",
      "price_range": "$$",
      "rating": 4.1,
      "review_count": 34,
      "address": "Halls, TN 37918",
      "phone": "(865) 922-4567",
      "website": "",
      "hours": "Wed-Sat: 11:00 AM - 8:00 PM, Closed Sun-Tue",
      "amenities": [
        "BBQ",
        "Local",
        "Comfort Food",
        "Takeout"
      ],
      "featured": false,
      "description": "Local BBQ restaurant with comfort food and takeout options."
    },
    {
      "id": 65,
      "name": "Lulu's Tea Room",
      "county": "Knox County",
      "city": "Powell",
      "cuisine": "American",
      "price_range": "$$",
      "rating": 4.6,
      "review_count": 82,
      "address": "Powell, TN 37849",
      "phone": "(865) 938-9876",
      "website": "",
      "hours": "Tue-Sat: 11:00 AM - 3:00 PM, Closed Sun-Mon",
      "amenities": [
        "Tea Room",
        "Elegant",
        "Lunch",
        "Special Occasions"
      ],
      "featured": false,
      "description": "Elegant tea room perfect for special occasions and refined lunch experiences."
    },
    {
      "id": 66,
      "name": "Howard's Restaurant",
      "county": "Sevier County",
      "city": "Gatlinburg",
      "cuisine": "American",
      "price_range": "$$",
      "rating": 4.6,
      "review_count": 242,
      "address": "976 Parkway, Gatlinburg, TN 37738",
      "phone": "(865) 436-3600",
      "website": "",
      "hours": "Daily: 7:00 AM - 9:00 PM",
      "amenities": [
        "Family Dining",
        "Southern Comfort",
        "Local Favorite",
        "Generous Portions"
      ],
      "featured": true,
      "description": "Local favorite serving Southern comfort food with generous portions since 1946."
    },
    {
      "id": 67,
      "name": "The Old Mill Restaurant",
      "county": "Sevier County",
      "city": "Pigeon Forge",
      "cuisine": "Southern",
      "price_range": "$$",
      "rating": 4.5,
      "review_count": 13641,
      "address": "164 Old Mill Ave, Pigeon Forge, TN 37863",
      "phone": "(865) 429-3463",
      "website": "www.old-mill.com",
      "hours": "Daily: 8:00 AM - 9:00 PM",
      "amenities": [
        "Historic Mill",
        "Southern Cuisine",
        "Fresh Ground Grits",
        "Gift Shop"
      ],
      "featured": true,
      "description": "Historic gristmill serving authentic Southern cuisine with fresh ground grits and cornmeal."
    },
    {
      "id": 68,
      "name": "Paula Deen's Family Kitchen",
      "county": "Sevier County",
      "city": "Pigeon Forge",
      "cuisine": "Southern",
      "price_range": "$$",
      "rating": 4.3,
      "review_count": 10433,
      "address": "131 The Island Dr, Pigeon Forge, TN 37863",
      "phone": "(865) 366-1900",
      "website": "",
      "hours": "Daily: 8:00 AM - 9:00 PM",
      "amenities": [
        "Family Style",
        "Southern Buffet",
        "Celebrity Chef",
        "The Island"
      ],
      "featured": false,
      "description": "Paula Deen's family-style Southern buffet restaurant at The Island in Pigeon Forge."
    },
    {
      "id": 69,
      "name": "Five Oaks Farm Kitchen",
      "county": "Sevier County",
      "city": "Sevierville",
      "cuisine": "American",
      "price_range": "$$",
      "rating": 4.3,
      "review_count": 1919,
      "address": "1665 Parkway, Sevierville, TN 37862",
      "phone": "(865) 365-4205",
      "website": "fiveoaksfarmkitchen.com",
      "hours": "Daily: 7:00 AM - 9:00 PM",
      "amenities": [
        "Farm-to-Table",
        "Fresh Produce",
        "Quality Beef",
        "Local Pork"
      ],
      "featured": true,
      "description": "Farm-to-table restaurant serving fresh produce, quality beef, and local pork with private dining rooms."
    },
    {
      "id": 70,
      "name": "The Appalachian",
      "county": "Sevier County",
      "city": "Sevierville",
      "cuisine": "American",
      "price_range": "$$$",
      "rating": 4.5,
      "review_count": 1234,
      "address": "Historic Downtown Sevierville, TN 37862",
      "phone": "(865) 365-7777",
      "website": "theappalachianrestaurant.com",
      "hours": "Daily: 11:00 AM - 10:00 PM",
      "amenities": [
        "Historic Downtown",
        "Smoky Mountain Story",
        "East Tennessee Heritage",
        "Craft Cocktails"
      ],
      "featured": true,
      "description": "Located in historic downtown Sevierville, telling the story of Smoky Mountain & East Tennessee heritage."
    },
    {
      "id": 71,
      "name": "Applewood Farmhouse Restaurant",
      "county": "Sevier County",
      "city": "Sevierville",
      "cuisine": "Southern",
      "price_range": "$$",
      "rating": 4.4,
      "review_count": 2567,
      "address": "240 Apple Valley Rd, Sevierville, TN 37862",
      "phone": "(865) 428-1222",
      "website": "www.applewoodfarmhouserestaurant.com",
      "hours": "Daily: 8:00 AM - 9:00 PM",
      "amenities": [
        "Apple Fritters",
        "Apple Julep",
        "Southern Favorites",
        "Farm Fresh"
      ],
      "featured": false,
      "description": "Home-style Southern favorites with signature Apple Fritters and Apple Julep."
    },
    {
      "id": 72,
      "name": "Local Goat",
      "county": "Sevier County",
      "city": "Pigeon Forge",
      "cuisine": "American",
      "price_range": "$$$",
      "rating": 4.6,
      "review_count": 5300,
      "address": "2167 Parkway, Pigeon Forge, TN 37863",
      "phone": "(865) 429-3647",
      "website": "www.local-goat.com",
      "hours": "Daily: 11:00 AM - 10:00 PM",
      "amenities": [
        "New American",
        "Scratch Kitchen",
        "Locally Sourced",
        "Sustainable"
      ],
      "featured": false,
      "description": "New American restaurant with scratch-made kitchen specializing in locally-sourced and sustainable menu items."
    },
    {
      "id": 73,
      "name": "Chesapeake's Seafood and Raw Bar",
      "county": "Sevier County",
      "city": "Gatlinburg",
      "cuisine": "Seafood",
      "price_range": "$$$",
      "rating": 4.8,
      "review_count": 1213,
      "address": "1001 Parkway, Gatlinburg, TN 37738",
      "phone": "(865) 436-4444",
      "website": "",
      "hours": "Daily: 4:00 PM - 10:00 PM",
      "amenities": [
        "Fresh Seafood",
        "Raw Bar",
        "Upscale",
        "Gatlinburg"
      ],
      "featured": false,
      "description": "Upscale seafood restaurant with fresh catches and raw bar in Gatlinburg."
    },
    {
      "id": 74,
      "name": "Cherokee Grill",
      "county": "Sevier County",
      "city": "Gatlinburg",
      "cuisine": "American",
      "price_range": "$$$",
      "rating": 4.5,
      "review_count": 5173,
      "address": "1002 Parkway, Gatlinburg, TN 37738",
      "phone": "(865) 436-1400",
      "website": "",
      "hours": "Daily: 5:00 PM - 10:00 PM",
      "amenities": [
        "Steaks",
        "Fine Dining",
        "Mountain Views",
        "Wine List"
      ],
      "featured": false,
      "description": "Fine dining steakhouse with mountain views and extensive wine list."
    },
    {
      "id": 75,
      "name": "Mel's Diner",
      "county": "Sevier County",
      "city": "Pigeon Forge",
      "cuisine": "American",
      "price_range": "$$",
      "rating": 4.4,
      "review_count": 1876,
      "address": "119 Wears Valley Rd, Pigeon Forge, TN 37863",
      "phone": "(865) 429-2643",
      "website": "www.melsdinerpf.com",
      "hours": "Daily: 6:00 AM - 10:00 PM",
      "amenities": [
        "Classic Diner",
        "Family Owned",
        "American Classic",
        "All Day Breakfast"
      ],
      "featured": false,
      "description": "Family owned and operated American classic diner with all-day breakfast."
    },
    {
      "id": 76,
      "name": "Holston's Kitchen",
      "county": "Sevier County",
      "city": "Sevierville",
      "cuisine": "American",
      "price_range": "$$",
      "rating": 4.5,
      "review_count": 987,
      "address": "Sevierville, TN 37862",
      "phone": "(865) 365-4205",
      "website": "holstonskitchen.com",
      "hours": "Daily: 11:00 AM - 9:00 PM",
      "amenities": [
        "Local Favorite",
        "Comfort Food",
        "Family Friendly",
        "Generous Portions"
      ],
      "featured": false,
      "description": "Local favorite serving comfort food with generous portions and family-friendly atmosphere."
    },
    {
      "id": 77,
      "name": "Smoky Mountain Brewery",
      "county": "Sevier County",
      "city": "Gatlinburg",
      "cuisine": "American",
      "price_range": "$$",
      "rating": 4.3,
      "review_count": 1456,
      "address": "1004 Parkway, Gatlinburg, TN 37738",
      "phone": "(865) 436-4200",
      "website": "",
      "hours": "Daily: 11:00 AM - 11:00 PM",
      "amenities": [
        "Craft Beer",
        "Brewery",
        "Wings",
        "Pizza"
      ],
      "featured": false,
      "description": "Local brewery with craft beer, awesome wings, and pizza in both Pigeon Forge and Gatlinburg."
    },
    {
      "id": 78,
      "name": "Frizzle Chicken Cafe",
      "county": "Sevier County",
      "city": "Pigeon Forge",
      "cuisine": "Southern",
      "price_range": "$$",
      "rating": 4.4,
      "review_count": 789,
      "address": "2785 Parkway, Pigeon Forge, TN 37863",
      "phone": "(865) 429-2888",
      "website": "frizzlechickencafe.com",
      "hours": "Daily: 7:00 AM - 3:00 PM",
      "amenities": [
        "Southern Breakfast",
        "Lunch",
        "Animatronic Chickens",
        "Family Fun"
      ],
      "featured": false,
      "description": "Southern-style breakfast and lunch with over 100 singing animatronic chickens!"
    },
    {
      "id": 79,
      "name": "J.T. Hannah's Kitchen",
      "county": "Sevier County",
      "city": "Pigeon Forge",
      "cuisine": "American",
      "price_range": "$$",
      "rating": 4.2,
      "review_count": 567,
      "address": "Pigeon Forge, TN 37863",
      "phone": "(865) 429-3456",
      "website": "jthannahs.com",
      "hours": "Daily: 11:00 AM - 9:00 PM",
      "amenities": [
        "All-American Menu",
        "Tennessee Tastes",
        "Family Friendly",
        "Casual"
      ],
      "featured": false,
      "description": "All-American menu featuring the best tastes in Tennessee in a family-friendly atmosphere."
    },
    {
      "id": 80,
      "name": "Margaritaville",
      "county": "Sevier County",
      "city": "Pigeon Forge",
      "cuisine": "American",
      "price_range": "$$",
      "rating": 4.1,
      "review_count": 2345,
      "address": "The Island, Pigeon Forge, TN 37863",
      "phone": "(865) 429-2500",
      "website": "www.margaritavillepigeonforge.com",
      "hours": "Daily: 11:00 AM - 11:00 PM",
      "amenities": [
        "Tropical Flavors",
        "Paradise",
        "The Island",
        "Jimmy Buffett"
      ],
      "featured": false,
      "description": "Enjoy paradise with tropical flavors at The Island in Pigeon Forge."
    },
    {
      "id": 81,
      "name": "Guy Fieri's Downtown Flavortown",
      "county": "Sevier County",
      "city": "Pigeon Forge",
      "cuisine": "American",
      "price_range": "$$",
      "rating": 4.3,
      "review_count": 1234,
      "address": "Pigeon Forge, TN 37863",
      "phone": "(865) 429-3700",
      "website": "downtownflavortown.com",
      "hours": "Daily: 11:00 AM - 10:00 PM",
      "amenities": [
        "Guy Fieri",
        "Arcade Games",
        "Bowling",
        "Entertainment"
      ],
      "featured": false,
      "description": "Experience all the fun and deliciousness of Downtown Flavortown with arcade games, bowling, and more!"
    },
    {
      "id": 82,
      "name": "Hard Rock Cafe",
      "county": "Sevier County",
      "city": "Pigeon Forge",
      "cuisine": "American",
      "price_range": "$$",
      "rating": 4.0,
      "review_count": 1567,
      "address": "Pigeon Forge, TN 37863",
      "phone": "(865) 429-7625",
      "website": "",
      "hours": "Daily: 11:00 AM - 11:00 PM",
      "amenities": [
        "Rock Memorabilia",
        "Live Music",
        "Burgers",
        "Entertainment"
      ],
      "featured": false,
      "description": "Rock and roll themed restaurant with memorabilia, live music, and classic American fare."
    },
    {
      "id": 83,
      "name": "Peddler Steakhouse",
      "county": "Sevier County",
      "city": "Gatlinburg",
      "cuisine": "Steakhouse",
      "price_range": "$$$",
      "rating": 4.4,
      "review_count": 2134,
      "address": "820 River Rd, Gatlinburg, TN 37738",
      "phone": "(865) 436-5794",
      "website": "peddlergatlinburg.com",
      "hours": "Daily: 5:00 PM - 10:00 PM",
      "amenities": [
        "Fresh Salad Bar",
        "Custom Cut Steaks",
        "River Views",
        "Little Pigeon River"
      ],
      "featured": false,
      "description": "Incredible dining experience with fresh salad bar, custom cut steaks, and Little Pigeon River views."
    },
    {
      "id": 84,
      "name": "The Park Grill",
      "county": "Sevier County",
      "city": "Gatlinburg",
      "cuisine": "American",
      "price_range": "$$$",
      "rating": 4.3,
      "review_count": 1789,
      "address": "1110 Parkway, Gatlinburg, TN 37738",
      "phone": "(865) 436-2300",
      "website": "parkgrillgatlinburg.com",
      "hours": "Daily: 5:00 PM - 10:00 PM",
      "amenities": [
        "Smoky Mountain Flavors",
        "Rustic Lodge",
        "Mountain Atmosphere",
        "Classic Flavors"
      ],
      "featured": false,
      "description": "True taste of the Smokies with classic flavors in a rustic mountain lodge setting."
    },
    {
      "id": 85,
      "name": "The Greenbrier Restaurant",
      "county": "Sevier County",
      "city": "Gatlinburg",
      "cuisine": "American",
      "price_range": "$$$$",
      "rating": 4.6,
      "review_count": 567,
      "address": "370 Newman Rd, Gatlinburg, TN 37738",
      "phone": "(865) 436-6318",
      "website": "greenbrierrestaurant.com",
      "hours": "Wed-Sun: 5:00 PM - 9:00 PM, Closed Mon-Tue",
      "amenities": [
        "Chef-Driven Menu",
        "Prime Steaks",
        "Fresh Produce",
        "Craft Cocktails"
      ],
      "featured": false,
      "description": "Acclaimed for unique chef-driven menu with hand-cut prime steaks, fresh produce, and craft cocktails."
    },
    {
      "id": 86,
      "name": "Chubby's Restaurant",
      "county": "Sevier County",
      "city": "Sevierville",
      "cuisine": "American",
      "price_range": "$$",
      "rating": 4.8,
      "review_count": 99,
      "address": "Sevierville, TN 37862",
      "phone": "(865) 365-6789",
      "website": "",
      "hours": "Daily: 7:00 AM - 9:00 PM",
      "amenities": [
        "Local Favorite",
        "Comfort Food",
        "Family Friendly",
        "Generous Portions"
      ],
      "featured": false,
      "description": "Local favorite known for comfort food, generous portions, and family-friendly atmosphere."
    },
    {
      "id": 87,
      "name": "English Mountain Trout Farm & Grill",
      "county": "Sevier County",
      "city": "Sevierville",
      "cuisine": "American",
      "price_range": "$$",
      "rating": 4.5,
      "review_count": 345,
      "address": "Sevierville, TN 37862",
      "phone": "(865) 365-7890",
      "website": "",
      "hours": "Daily: 11:00 AM - 8:00 PM",
      "amenities": [
        "Fresh Trout",
        "Farm Fresh",
        "Mountain Setting",
        "Outdoor Dining"
      ],
      "featured": false,
      "description": "Fresh trout farm and grill with mountain setting and outdoor dining options."
    },
    {
      "id": 88,
      "name": "Graze Burgers",
      "county": "Sevier County",
      "city": "Sevierville",
      "cuisine": "American",
      "price_range": "$$",
      "rating": 4.4,
      "review_count": 234,
      "address": "Sevierville, TN 37862",
      "phone": "(865) 365-8901",
      "website": "",
      "hours": "Daily: 11:00 AM - 9:00 PM",
      "amenities": [
        "Gourmet Burgers",
        "Local Ingredients",
        "Craft Beer",
        "Casual"
      ],
      "featured": false,
      "description": "Gourmet burger restaurant with local ingredients and craft beer selection."
    },
    {
      "id": 89,
      "name": "The Diner",
      "county": "Sevier County",
      "city": "Sevierville",
      "cuisine": "American",
      "price_range": "$",
      "rating": 4.2,
      "review_count": 456,
      "address": "Sevierville, TN 37862",
      "phone": "(865) 365-9012",
      "website": "",
      "hours": "Daily: 6:00 AM - 10:00 PM",
      "amenities": [
        "Affordable",
        "American Food",
        "All Day Breakfast",
        "Family Friendly"
      ],
      "featured": false,
      "description": "Affordable American food with all-day breakfast and family-friendly atmosphere."
    },
    {
      "id": 90,
      "name": "Aubrey's Sevierville",
      "county": "Sevier County",
      "city": "Sevierville",
      "cuisine": "American",
      "price_range": "$$",
      "rating": 4.3,
      "review_count": 345,
      "address": "928 Dolly Parton Pkwy, Sevierville, TN 37862",
      "phone": "(865) 365-1303",
      "website": "aubreysrestaurants.com",
      "hours": "Daily: 11:00 AM - 10:00 PM",
      "amenities": [
        "Family Dining",
        "Burgers",
        "Sandwiches",
        "Salads"
      ],
      "featured": false,
      "description": "Family restaurant with burgers, sandwiches, and specialty salads near Dollywood."
    },
    {
      "id": 91,
      "name": "Tequila Spice",
      "county": "Sevier County",
      "city": "Sevierville",
      "cuisine": "Mexican",
      "price_range": "$$",
      "rating": 4.4,
      "review_count": 234,
      "address": "Sevierville, TN 37862",
      "phone": "(865) 365-0123",
      "website": "",
      "hours": "Daily: 11:00 AM - 10:00 PM",
      "amenities": [
        "Mexican Cuisine",
        "Spicy",
        "Margaritas",
        "Festive"
      ],
      "featured": false,
      "description": "Mexican restaurant with spicy cuisine, margaritas, and festive atmosphere."
    },
    {
      "id": 92,
      "name": "Buddy's Bar-B-Q",
      "county": "Sevier County",
      "city": "Sevierville",
      "cuisine": "BBQ",
      "price_range": "$$",
      "rating": 4.2,
      "review_count": 567,
      "address": "Sevierville, TN 37862",
      "phone": "(865) 365-1234",
      "website": "",
      "hours": "Daily: 11:00 AM - 9:00 PM",
      "amenities": [
        "BBQ",
        "Southern",
        "Comfort Food",
        "Family Friendly"
      ],
      "featured": false,
      "description": "Traditional BBQ restaurant with Southern comfort food and family-friendly atmosphere."
    },
    {
      "id": 93,
      "name": "Quaker Steak & Lube",
      "county": "Sevier County",
      "city": "Sevierville",
      "cuisine": "American",
      "price_range": "$$",
      "rating": 4.1,
      "review_count": 345,
      "address": "Sevierville, TN 37862",
      "phone": "(865) 365-2345",
      "website": "thelube.com",
      "hours": "Daily: 11:00 AM - 10:00 PM",
      "amenities": [
        "Wings",
        "25 Sauces",
        "Smoky Mountains",
        "Sports Bar"
      ],
      "featured": false,
      "description": "Best wings in the Smoky Mountains with over 25 different wing sauces."
    },
    {
      "id": 94,
      "name": "Bluffs Local",
      "county": "Sevier County",
      "city": "Sevierville",
      "cuisine": "American",
      "price_range": "$$",
      "rating": 4.5,
      "review_count": 234,
      "address": "Sevierville, TN 37862",
      "phone": "(865) 365-3456",
      "website": "www.bluffslocal.com",
      "hours": "Daily: 11:00 AM - 10:00 PM",
      "amenities": [
        "Amazing Wings",
        "Black Angus Burgers",
        "Fresh Made",
        "Full Bar"
      ],
      "featured": false,
      "description": "Always fresh and made to order featuring amazing wings, hand pattied black angus burgers, and full bar."
    },
    {
      "id": 95,
      "name": "Junction 35 Kitchen & Bar",
      "county": "Sevier County",
      "city": "Sevierville",
      "cuisine": "American",
      "price_range": "$$",
      "rating": 4.3,
      "review_count": 456,
      "address": "Sevierville, TN 37862",
      "phone": "(865) 365-4567",
      "website": "www.junction35spirits.com",
      "hours": "Daily: 11:00 AM - 10:00 PM",
      "amenities": [
        "Premium Burgers",
        "Slow-Smoked BBQ",
        "Wings",
        "Southern Favorites"
      ],
      "featured": false,
      "description": "Unique dining experience with premium burgers, slow-smoked BBQ, wings, and Southern favorites."
    },
    {
      "id": 96,
      "name": "Iron Forge Brewing Co.",
      "county": "Sevier County",
      "city": "Sevierville",
      "cuisine": "American",
      "price_range": "$$",
      "rating": 4.4,
      "review_count": 345,
      "address": "Sevierville, TN 37862",
      "phone": "(865) 365-5678",
      "website": "",
      "hours": "Daily: 11:00 AM - 11:00 PM",
      "amenities": [
        "Craft Beer",
        "Brewery",
        "Local",
        "Pub Food"
      ],
      "featured": false,
      "description": "Local craft brewery with fresh beer and elevated pub food."
    },
    {
      "id": 97,
      "name": "Brick & Spoon",
      "county": "Sevier County",
      "city": "Sevierville",
      "cuisine": "American",
      "price_range": "$$",
      "rating": 4.2,
      "review_count": 234,
      "address": "Sevierville, TN 37862",
      "phone": "(865) 365-6789",
      "website": "",
      "hours": "Daily: 7:00 AM - 3:00 PM",
      "amenities": [
        "Breakfast",
        "Brunch",
        "Fresh Ingredients",
        "Local"
      ],
      "featured": false,
      "description": "Breakfast and brunch spot with fresh ingredients and local atmosphere."
    },
    {
      "id": 98,
      "name": "Ristorante Della Santina",
      "county": "Sevier County",
      "city": "Sevierville",
      "cuisine": "Italian",
      "price_range": "$$$",
      "rating": 4.5,
      "review_count": 345,
      "address": "Sevierville, TN 37862",
      "phone": "(865) 365-7890",
      "website": "",
      "hours": "Daily: 5:00 PM - 10:00 PM",
      "amenities": [
        "Italian",
        "Fine Dining",
        "Wine",
        "Romantic"
      ],
      "featured": false,
      "description": "Fine Italian dining with authentic cuisine, extensive wine list, and romantic atmosphere."
    },
    {
      "id": 99,
      "name": "Red's Cafe",
      "county": "Sevier County",
      "city": "Sevierville",
      "cuisine": "American",
      "price_range": "$",
      "rating": 4.1,
      "review_count": 123,
      "address": "Historic Sevierville, TN 37862",
      "phone": "(865) 365-8901",
      "website": "",
      "hours": "Mon-Sat: 7:00 AM - 3:00 PM, Closed Sun",
      "amenities": [
        "Soda Fountain",
        "Historic",
        "Local Favorite",
        "Breakfast"
      ],
      "featured": false,
      "description": "Historic soda fountain and cafe in downtown Sevierville, local favorite for breakfast."
    },
    {
      "id": 100,
      "name": "Pinchy Lobster",
      "county": "Sevier County",
      "city": "Sevierville",
      "cuisine": "Seafood",
      "price_range": "$$",
      "rating": 4.3,
      "review_count": 234,
      "address": "Historic Sevierville, TN 37862",
      "phone": "(865) 365-9012",
      "website": "",
      "hours": "Daily: 11:00 AM - 9:00 PM",
      "amenities": [
        "Lobster",
        "Seafood",
        "Historic Downtown",
        "Fresh"
      ],
      "featured": false,
      "description": "Fresh lobster and seafood restaurant in historic downtown Sevierville."
    },
    {
      "id": 101,
      "name": "Foothills Milling Company",
      "county": "Blount County",
      "city": "Maryville",
      "cuisine": "American",
      "price_range": "$$$$",
      "rating": 4.8,
      "review_count": 635,
      "address": "312 S Washington St, Maryville, TN 37804",
      "phone": "(865) 977-4455",
      "website": "foothillsmillingcompany.com",
      "hours": "Tue-Sat: 5:00 PM - 9:00 PM, Closed Sun-Mon",
      "amenities": [
        "Fine Dining",
        "White Tablecloth",
        "Elegant",
        "Exclusive"
      ],
      "featured": true,
      "description": "Blount County's truest fine dining experience with white tablecloth service and elegant atmosphere."
    },
    {
      "id": 102,
      "name": "Dancing Bear Appalachian Bistro",
      "county": "Blount County",
      "city": "Townsend",
      "cuisine": "American",
      "price_range": "$$$$",
      "rating": 4.7,
      "review_count": 891,
      "address": "137 Apple Valley Rd, Townsend, TN 37882",
      "phone": "(865) 448-2240",
      "website": "dancingbearlodge.com",
      "hours": "Wed-Sun: 5:00 PM - 9:00 PM, Closed Mon-Tue",
      "amenities": [
        "Award-Winning",
        "Appalachian Cuisine",
        "Top 1% TripAdvisor",
        "Peaceful Side"
      ],
      "featured": true,
      "description": "Award-winning Appalachian cuisine on the peaceful side of the Smokies. Top 1% of TripAdvisor listings."
    },
    {
      "id": 103,
      "name": "The Walnut Kitchen",
      "county": "Blount County",
      "city": "Maryville",
      "cuisine": "American",
      "price_range": "$$$",
      "rating": 4.1,
      "review_count": 175,
      "address": "The Historic District, Maryville, TN 37804",
      "phone": "(865) 977-5678",
      "website": "thewalnutkitchen.com",
      "hours": "Tue-Sat: 11:00 AM - 9:00 PM, Closed Sun-Mon",
      "amenities": [
        "Culinary Artistry",
        "Hometown Comfort",
        "Smoky Mountains",
        "Historic District"
      ],
      "featured": false,
      "description": "Where culinary artistry meets hometown comfort at the foothills of the Smoky Mountains."
    },
    {
      "id": 104,
      "name": "Calhoun's Maryville",
      "county": "Blount County",
      "city": "Maryville",
      "cuisine": "BBQ",
      "price_range": "$$",
      "rating": 4.6,
      "review_count": 822,
      "address": "Maryville, TN 37804",
      "phone": "(865) 977-6789",
      "website": "www.calhouns.com",
      "hours": "Daily: 11:00 AM - 10:00 PM",
      "amenities": [
        "BBQ Ribs",
        "Family Friendly",
        "Southern",
        "Casual"
      ],
      "featured": false,
      "description": "Famous for barbecue ribs with family-friendly atmosphere and Southern hospitality."
    },
    {
      "id": 105,
      "name": "Bella",
      "county": "Blount County",
      "city": "Maryville",
      "cuisine": "Italian",
      "price_range": "$$$",
      "rating": 4.4,
      "review_count": 456,
      "address": "Downtown Maryville, TN 37804",
      "phone": "(865) 977-7890",
      "website": "bellamaryville.com",
      "hours": "Tue-Sat: 5:00 PM - 10:00 PM, Closed Sun-Mon",
      "amenities": [
        "First Dates",
        "Old Friends",
        "Families",
        "Fresh Made"
      ],
      "featured": false,
      "description": "A place for first dates, old friends and families to come together. Fresh dishes made with just a dash of love."
    },
    {
      "id": 106,
      "name": "Aubrey's Maryville",
      "county": "Blount County",
      "city": "Maryville",
      "cuisine": "American",
      "price_range": "$$",
      "rating": 4.3,
      "review_count": 567,
      "address": "909 W. Lamar Alexander Parkway, Maryville, TN 37804",
      "phone": "(865) 379-8800",
      "website": "aubreysrestaurants.com",
      "hours": "Daily: 11:00 AM - 10:00 PM",
      "amenities": [
        "Family Dining",
        "Burgers",
        "Sandwiches",
        "Salads"
      ],
      "featured": false,
      "description": "Family restaurant with burgers, sandwiches, and specialty salads."
    },
    {
      "id": 107,
      "name": "Blackhorse Pub & Brewery",
      "county": "Blount County",
      "city": "Alcoa",
      "cuisine": "American",
      "price_range": "$$",
      "rating": 4.1,
      "review_count": 285,
      "address": "Alcoa, TN 37701",
      "phone": "(865) 984-1234",
      "website": "",
      "hours": "Daily: 11:00 AM - 11:00 PM",
      "amenities": [
        "Craft Beer",
        "Burgers",
        "Pizza",
        "Outdoor Seating"
      ],
      "featured": false,
      "description": "Great burgers and pizza with craft beer and plentiful outdoor seating."
    },
    {
      "id": 108,
      "name": "Hot Rods 50's Diner",
      "county": "Blount County",
      "city": "Alcoa",
      "cuisine": "American",
      "price_range": "$$",
      "rating": 4.5,
      "review_count": 548,
      "address": "Alcoa, TN 37701",
      "phone": "(865) 984-2345",
      "website": "www.hotrods50sdiner.com",
      "hours": "Daily: 7:00 AM - 9:00 PM",
      "amenities": [
        "Retro 50s Style",
        "Great Food",
        "Great Atmosphere",
        "Great Service"
      ],
      "featured": false,
      "description": "Retro 50's style diner offering great food, great atmosphere, and great service all at a great price."
    },
    {
      "id": 109,
      "name": "Blue Moose Burgers & Wings",
      "county": "Blount County",
      "city": "Alcoa",
      "cuisine": "American",
      "price_range": "$$",
      "rating": 4.4,
      "review_count": 110,
      "address": "Alcoa, TN 37701",
      "phone": "(865) 984-3456",
      "website": "",
      "hours": "Daily: 11:00 AM - 10:00 PM",
      "amenities": [
        "Burgers",
        "Wings",
        "Casual",
        "Sports Bar"
      ],
      "featured": false,
      "description": "Casual sports bar atmosphere with great burgers and wings."
    },
    {
      "id": 110,
      "name": "Midland Restaurant",
      "county": "Blount County",
      "city": "Alcoa",
      "cuisine": "American",
      "price_range": "$$",
      "rating": 4.1,
      "review_count": 112,
      "address": "Alcoa, TN 37701",
      "phone": "(865) 984-4567",
      "website": "www.midland-restaurant.com",
      "hours": "Daily: 6:00 AM - 9:00 PM",
      "amenities": [
        "Family Friendly",
        "All Walks of Life",
        "Young Families",
        "Senior Citizens"
      ],
      "featured": false,
      "description": "Family friendly restaurant catering to people from all walks of life from young families to senior citizens."
    },
    {
      "id": 111,
      "name": "The Abbey",
      "county": "Blount County",
      "city": "Townsend",
      "cuisine": "American",
      "price_range": "$$",
      "rating": 4.3,
      "review_count": 150,
      "address": "Townsend, TN 37882",
      "phone": "(865) 448-3456",
      "website": "townsendabbey.com",
      "hours": "Daily: 11:00 AM - 9:00 PM",
      "amenities": [
        "River Dining",
        "Craft Beer",
        "Cider",
        "Sweet Tea"
      ],
      "featured": false,
      "description": "Great way to spend a sunny afternoon, eating by the river and drinking your favorite brew."
    },
    {
      "id": 112,
      "name": "Apple Valley Cafe",
      "county": "Blount County",
      "city": "Townsend",
      "cuisine": "American",
      "price_range": "$$",
      "rating": 4.2,
      "review_count": 935,
      "address": "Townsend, TN 37882",
      "phone": "(865) 448-4567",
      "website": "applevalleystores.com",
      "hours": "Daily: 8:00 AM - 8:00 PM",
      "amenities": [
        "Best Food in Townsend",
        "Friendly Staff",
        "Fantastic Coffee",
        "Mountain Village"
      ],
      "featured": false,
      "description": "Best food in Townsend with friendly staff and fantastic coffee in a charming mountain village setting."
    },
    {
      "id": 113,
      "name": "Peaceful Side Social",
      "county": "Blount County",
      "city": "Townsend",
      "cuisine": "American",
      "price_range": "$$",
      "rating": 4.5,
      "review_count": 270,
      "address": "7967 E Lamar Alexander Parkway, Townsend, TN 37882",
      "phone": "(865) 518-6300",
      "website": "peacefulsidesocial.com",
      "hours": "Daily: 11:00 AM - 10:00 PM",
      "amenities": [
        "Craft Kitchen",
        "Craft Beer",
        "Mountain Views",
        "Respite from Crowds"
      ],
      "featured": false,
      "description": "Respite from the crowds with flavorful plates from Craft Kitchen, craft beer, and uncluttered mountain views."
    },
    {
      "id": 114,
      "name": "Riverstone Family Restaurant",
      "county": "Blount County",
      "city": "Townsend",
      "cuisine": "American",
      "price_range": "$$",
      "rating": 4.2,
      "review_count": 1167,
      "address": "Townsend, TN 37882",
      "phone": "(865) 448-5678",
      "website": "www.riverstonefamilyrestaurant.com",
      "hours": "Daily: 7:00 AM - 9:00 PM",
      "amenities": [
        "Down-Home American",
        "Rustic",
        "Fireplace",
        "Old West Vibe"
      ],
      "featured": false,
      "description": "Down-home American grub in a rustic, wood-paneled dining room with a fireplace & Old West vibe."
    },
    {
      "id": 115,
      "name": "Burger Master Drive-In",
      "county": "Blount County",
      "city": "Townsend",
      "cuisine": "American",
      "price_range": "$",
      "rating": 4.3,
      "review_count": 234,
      "address": "Townsend, TN 37882",
      "phone": "(865) 448-6789",
      "website": "www.burgermaster.net",
      "hours": "Daily: 11:00 AM - 8:00 PM",
      "amenities": [
        "Savory Burgers",
        "Soft-Serve Treats",
        "Cades Cove",
        "Mountain Views"
      ],
      "featured": false,
      "description": "Savory burgers & sweet, soft-serve treats near Cades Cove with covered outdoor seating & mountain views."
    },
    {
      "id": 116,
      "name": "Little River Pub and Deli",
      "county": "Blount County",
      "city": "Townsend",
      "cuisine": "American",
      "price_range": "$$",
      "rating": 4.2,
      "review_count": 156,
      "address": "7503 W Old Hwy 73, Townsend, TN 37882",
      "phone": "(865) 738-3696",
      "website": "",
      "hours": "Daily: 11:00 AM - 9:00 PM",
      "amenities": [
        "Pub",
        "Deli",
        "Local Favorite",
        "Casual"
      ],
      "featured": false,
      "description": "Local pub and deli with casual atmosphere and good food."
    },
    {
      "id": 117,
      "name": "Bunny's Smokehouse & Creamery",
      "county": "Blount County",
      "city": "Maryville",
      "cuisine": "BBQ",
      "price_range": "$$",
      "rating": 4.6,
      "review_count": 234,
      "address": "Maryville, TN 37804",
      "phone": "(865) 977-8901",
      "website": "",
      "hours": "Wed-Sat: 11:00 AM - 8:00 PM, Closed Sun-Tue",
      "amenities": [
        "Smokehouse",
        "Creamery",
        "BBQ",
        "Local"
      ],
      "featured": false,
      "description": "Local smokehouse and creamery with authentic BBQ and homemade ice cream."
    },
    {
      "id": 118,
      "name": "Maryville Corner Market And Cafe",
      "county": "Blount County",
      "city": "Maryville",
      "cuisine": "American",
      "price_range": "$",
      "rating": 4.3,
      "review_count": 89,
      "address": "Maryville, TN 37804",
      "phone": "(865) 977-9012",
      "website": "",
      "hours": "Mon-Sat: 7:00 AM - 7:00 PM, Closed Sun",
      "amenities": [
        "Market",
        "Cafe",
        "Local",
        "Fresh"
      ],
      "featured": false,
      "description": "Local market and cafe with fresh food and friendly service."
    },
    {
      "id": 119,
      "name": "Waterfront Bar & Grill",
      "county": "Blount County",
      "city": "Maryville",
      "cuisine": "American",
      "price_range": "$$",
      "rating": 4.2,
      "review_count": 167,
      "address": "Maryville, TN 37804",
      "phone": "(865) 977-0123",
      "website": "www.waterfrontmaryville.com",
      "hours": "Daily: 11:00 AM - 10:00 PM",
      "amenities": [
        "Waterfront",
        "Bar",
        "Grill",
        "Catering"
      ],
      "featured": false,
      "description": "Waterfront dining with bar and grill atmosphere, also offering catering services."
    },
    {
      "id": 120,
      "name": "Two Doors Down",
      "county": "Blount County",
      "city": "Maryville",
      "cuisine": "American",
      "price_range": "$$",
      "rating": 4.1,
      "review_count": 123,
      "address": "Downtown Maryville, TN 37804",
      "phone": "(865) 977-1234",
      "website": "twodoorsdownmaryville.com",
      "hours": "Daily: 11:00 AM - 11:00 PM",
      "amenities": [
        "Flatbread Pizzas",
        "Downtown",
        "Casual",
        "Bar"
      ],
      "featured": false,
      "description": "Downtown restaurant and bar featuring flatbread pizzas and casual atmosphere."
    },
    {
      "id": 121,
      "name": "Little Dutch Restaurant",
      "county": "Hamblen County",
      "city": "Morristown",
      "cuisine": "American",
      "price_range": "$$",
      "rating": 4.4,
      "review_count": 567,
      "address": "Morristown, TN 37813",
      "phone": "(423) 586-1234",
      "website": "",
      "hours": "Daily: 6:00 AM - 9:00 PM",
      "amenities": [
        "Dutch Cuisine",
        "Family Friendly",
        "Local Favorite",
        "Comfort Food"
      ],
      "featured": true,
      "description": "Local favorite serving Dutch-inspired comfort food with family-friendly atmosphere."
    },
    {
      "id": 122,
      "name": "Holston's Kitchen",
      "county": "Hamblen County",
      "city": "Morristown",
      "cuisine": "American",
      "price_range": "$$",
      "rating": 4.5,
      "review_count": 345,
      "address": "Morristown, TN 37813",
      "phone": "(423) 616-0133",
      "website": "holstonskitchen.com",
      "hours": "Daily: 11:00 AM - 9:00 PM",
      "amenities": [
        "Local Favorite",
        "Comfort Food",
        "Family Friendly",
        "Generous Portions"
      ],
      "featured": false,
      "description": "Local favorite serving comfort food with generous portions and family-friendly atmosphere."
    },
    {
      "id": 123,
      "name": "Between The Bricks",
      "county": "Hamblen County",
      "city": "Morristown",
      "cuisine": "American",
      "price_range": "$$",
      "rating": 4.6,
      "review_count": 234,
      "address": "Morristown, TN 37813",
      "phone": "(423) 586-2345",
      "website": "",
      "hours": "Tue-Sat: 11:00 AM - 9:00 PM, Closed Sun-Mon",
      "amenities": [
        "Local",
        "Unique",
        "Brick Setting",
        "Casual"
      ],
      "featured": false,
      "description": "Unique local restaurant with charming brick setting and casual atmosphere."
    },
    {
      "id": 124,
      "name": "Redbud Deli",
      "county": "Hamblen County",
      "city": "Morristown",
      "cuisine": "American",
      "price_range": "$",
      "rating": 4.3,
      "review_count": 156,
      "address": "Morristown, TN 37813",
      "phone": "(423) 586-3456",
      "website": "",
      "hours": "Mon-Fri: 7:00 AM - 3:00 PM, Closed Weekends",
      "amenities": [
        "Deli",
        "Fresh Sandwiches",
        "Quick Service",
        "Local"
      ],
      "featured": false,
      "description": "Local deli with fresh sandwiches and quick service for lunch."
    },
    {
      "id": 125,
      "name": "Cooks Boat House Restaurant",
      "county": "Hamblen County",
      "city": "Bean Station",
      "cuisine": "American",
      "price_range": "$$",
      "rating": 4.2,
      "review_count": 189,
      "address": "Bean Station, TN 37708",
      "phone": "(423) 993-1234",
      "website": "",
      "hours": "Daily: 11:00 AM - 9:00 PM",
      "amenities": [
        "Boat House",
        "Lakeside",
        "Seafood",
        "Scenic Views"
      ],
      "featured": false,
      "description": "Lakeside boat house restaurant with seafood and scenic views."
    },
    {
      "id": 126,
      "name": "Aubrey's Morristown",
      "county": "Hamblen County",
      "city": "Morristown",
      "cuisine": "American",
      "price_range": "$$",
      "rating": 4.3,
      "review_count": 234,
      "address": "Morristown, TN 37813",
      "phone": "(423) 586-4567",
      "website": "aubreysrestaurants.com",
      "hours": "Daily: 11:00 AM - 10:00 PM",
      "amenities": [
        "Family Dining",
        "Burgers",
        "Sandwiches",
        "Salads"
      ],
      "featured": false,
      "description": "Family restaurant with burgers, sandwiches, and specialty salads."
    },
    {
      "id": 127,
      "name": "60 Beans Coffee",
      "county": "Hamblen County",
      "city": "Morristown",
      "cuisine": "Coffee",
      "price_range": "$",
      "rating": 4.4,
      "review_count": 123,
      "address": "275 E. Morris Blvd, Morristown, TN 37813",
      "phone": "(423) 839-0407",
      "website": "",
      "hours": "Mon-Fri: 6:00 AM - 6:00 PM, Sat: 7:00 AM - 4:00 PM, Closed Sun",
      "amenities": [
        "Coffee",
        "Local Roaster",
        "Cafe",
        "WiFi"
      ],
      "featured": false,
      "description": "Local coffee roaster and cafe with WiFi and comfortable atmosphere."
    },
    {
      "id": 128,
      "name": "El Paraiso Restaurant",
      "county": "Hamblen County",
      "city": "Bean Station",
      "cuisine": "Mexican",
      "price_range": "$$",
      "rating": 4.1,
      "review_count": 167,
      "address": "Bean Station, TN 37708",
      "phone": "(423) 993-2345",
      "website": "",
      "hours": "Daily: 11:00 AM - 9:00 PM",
      "amenities": [
        "Mexican",
        "Paradise",
        "Flavorful",
        "Multiple Locations"
      ],
      "featured": false,
      "description": "Taste of paradise with flavorful Mexican cuisine. Multiple locations in the area."
    },
    {
      "id": 129,
      "name": "Crossroads Cafe",
      "county": "Hamblen County",
      "city": "Bean Station",
      "cuisine": "American",
      "price_range": "$",
      "rating": 4.0,
      "review_count": 89,
      "address": "Bean Station, TN 37708",
      "phone": "(423) 993-3456",
      "website": "",
      "hours": "Daily: 6:00 AM - 8:00 PM",
      "amenities": [
        "Cafe",
        "Crossroads",
        "Local",
        "Comfort Food"
      ],
      "featured": false,
      "description": "Local cafe at the crossroads serving comfort food and friendly service."
    },
    {
      "id": 130,
      "name": "Tennessee Jack's",
      "county": "Hamblen County",
      "city": "Morristown",
      "cuisine": "American",
      "price_range": "$$",
      "rating": 4.2,
      "review_count": 145,
      "address": "Morristown, TN 37813",
      "phone": "(423) 586-5678",
      "website": "",
      "hours": "Daily: 11:00 AM - 10:00 PM",
      "amenities": [
        "Tennessee Style",
        "Local",
        "Casual",
        "Bar"
      ],
      "featured": false,
      "description": "Tennessee-style restaurant with local atmosphere and casual bar setting."
    },
    {
      "id": 131,
      "name": "Jalsa Indian Restaurant",
      "county": "Hamblen County",
      "city": "Morristown",
      "cuisine": "Indian",
      "price_range": "$$",
      "rating": 4.5,
      "review_count": 78,
      "address": "Morristown, TN 37813",
      "phone": "(423) 586-6789",
      "website": "",
      "hours": "Daily: 11:00 AM - 9:00 PM",
      "amenities": [
        "Indian Cuisine",
        "Authentic",
        "Spices",
        "Vegetarian Options"
      ],
      "featured": false,
      "description": "Authentic Indian cuisine with traditional spices and vegetarian options."
    },
    {
      "id": 132,
      "name": "Freddy's Frozen Custard & Steakburgers",
      "county": "Hamblen County",
      "city": "Morristown",
      "cuisine": "American",
      "price_range": "$",
      "rating": 4.1,
      "review_count": 234,
      "address": "Andrew Johnson Highway, Morristown, TN 37813",
      "phone": "(423) 586-7890",
      "website": "",
      "hours": "Daily: 10:00 AM - 10:00 PM",
      "amenities": [
        "Frozen Custard",
        "Steakburgers",
        "Fast Casual",
        "Chain"
      ],
      "featured": false,
      "description": "Fast-casual restaurant franchise featuring frozen custard and steakburgers."
    },
    {
      "id": 133,
      "name": "Pals Sudden Service",
      "county": "Hamblen County",
      "city": "Morristown",
      "cuisine": "Fast Food",
      "price_range": "$",
      "rating": 4.3,
      "review_count": 345,
      "address": "West End, Morristown, TN 37813",
      "phone": "(423) 586-8901",
      "website": "",
      "hours": "Daily: 6:00 AM - 11:00 PM",
      "amenities": [
        "Regional Chain",
        "Fast Service",
        "Local Favorite",
        "Drive-Thru"
      ],
      "featured": false,
      "description": "Regional fast food chain known for quick service and local popularity."
    },
    {
      "id": 134,
      "name": "Burger King",
      "county": "Hamblen County",
      "city": "Morristown",
      "cuisine": "Fast Food",
      "price_range": "$",
      "rating": 3.6,
      "review_count": 189,
      "address": "Morristown, TN 37813",
      "phone": "(423) 586-9012",
      "website": "www.bk.com",
      "hours": "Daily: 6:00 AM - 11:00 PM",
      "amenities": [
        "Whopper",
        "Fast Food",
        "Drive-Thru",
        "Breakfast"
      ],
      "featured": false,
      "description": "Home of the Whopper with burgers, breakfast, lunch and dinner prepared your way."
    },
    {
      "id": 135,
      "name": "McDonald's",
      "county": "Hamblen County",
      "city": "Morristown",
      "cuisine": "Fast Food",
      "price_range": "$",
      "rating": 3.7,
      "review_count": 267,
      "address": "Morristown, TN 37813",
      "phone": "(423) 586-0123",
      "website": "www.mcdonalds.com",
      "hours": "Daily: 5:00 AM - 11:00 PM",
      "amenities": [
        "Big Mac",
        "Fast Food",
        "Drive-Thru",
        "Breakfast"
      ],
      "featured": false,
      "description": "Fast food restaurant with burgers, fries, breakfast items, and drive-thru service."
    },
    {
      "id": 136,
      "name": "The Woodshed",
      "county": "Cocke County",
      "city": "Newport",
      "cuisine": "American",
      "price_range": "$$",
      "rating": 4.4,
      "review_count": 345,
      "address": "Newport, TN 37821",
      "phone": "(423) 623-1234",
      "website": "",
      "hours": "Daily: 11:00 AM - 9:00 PM",
      "amenities": [
        "Rustic",
        "Local Favorite",
        "Comfort Food",
        "Mountain Atmosphere"
      ],
      "featured": true,
      "description": "Rustic local favorite with comfort food and authentic mountain atmosphere."
    },
    {
      "id": 137,
      "name": "Carver's Orchard & Applehouse",
      "county": "Cocke County",
      "city": "Cosby",
      "cuisine": "American",
      "price_range": "$$",
      "rating": 4.3,
      "review_count": 234,
      "address": "Cosby, TN 37722",
      "phone": "(423) 487-2345",
      "website": "",
      "hours": "Daily: 9:00 AM - 6:00 PM",
      "amenities": [
        "Orchard",
        "Apple House",
        "Fresh Apples",
        "Mountain Views"
      ],
      "featured": true,
      "description": "Orchard and applehouse with fresh apples, mountain views, and authentic mountain dining."
    },
    {
      "id": 138,
      "name": "Grill 73",
      "county": "Cocke County",
      "city": "Newport",
      "cuisine": "American",
      "price_range": "$$",
      "rating": 4.2,
      "review_count": 189,
      "address": "Newport, TN 37821",
      "phone": "(423) 623-3456",
      "website": "",
      "hours": "Daily: 11:00 AM - 10:00 PM",
      "amenities": [
        "Grill",
        "Local",
        "Casual",
        "Bar"
      ],
      "featured": false,
      "description": "Local grill with casual atmosphere and bar setting."
    },
    {
      "id": 139,
      "name": "Fox & Hounds",
      "county": "Cocke County",
      "city": "Newport",
      "cuisine": "American",
      "price_range": "$$",
      "rating": 4.1,
      "review_count": 156,
      "address": "Newport, TN 37821",
      "phone": "(423) 623-4567",
      "website": "",
      "hours": "Daily: 11:00 AM - 9:00 PM",
      "amenities": [
        "English Pub Style",
        "Local",
        "Casual",
        "Traditional"
      ],
      "featured": false,
      "description": "English pub-style restaurant with traditional atmosphere and local charm."
    },
    {
      "id": 140,
      "name": "Neighborhood Beer House",
      "county": "Cocke County",
      "city": "Newport",
      "cuisine": "American",
      "price_range": "$$",
      "rating": 4.0,
      "review_count": 123,
      "address": "Newport, TN 37821",
      "phone": "(423) 623-5678",
      "website": "",
      "hours": "Daily: 3:00 PM - 11:00 PM",
      "amenities": [
        "Beer House",
        "Neighborhood",
        "Local",
        "Craft Beer"
      ],
      "featured": false,
      "description": "Neighborhood beer house with local atmosphere and craft beer selection."
    },
    {
      "id": 141,
      "name": "Doc's 321 Cafe",
      "county": "Cocke County",
      "city": "Cosby",
      "cuisine": "American",
      "price_range": "$",
      "rating": 4.2,
      "review_count": 89,
      "address": "Cosby, TN 37722",
      "phone": "(423) 487-3456",
      "website": "",
      "hours": "Daily: 7:00 AM - 8:00 PM",
      "amenities": [
        "Cafe",
        "Local",
        "Comfort Food",
        "Mountain"
      ],
      "featured": false,
      "description": "Local mountain cafe with comfort food and friendly atmosphere."
    },
    {
      "id": 142,
      "name": "Janice's Diner",
      "county": "Cocke County",
      "city": "Cosby",
      "cuisine": "American",
      "price_range": "$",
      "rating": 4.1,
      "review_count": 67,
      "address": "Cosby, TN 37722",
      "phone": "(423) 487-4567",
      "website": "",
      "hours": "Daily: 6:00 AM - 8:00 PM",
      "amenities": [
        "Diner",
        "Local",
        "Breakfast",
        "Home Cooking"
      ],
      "featured": false,
      "description": "Local diner with home cooking, breakfast specialties, and mountain hospitality."
    },
    {
      "id": 143,
      "name": "Pizza Plus",
      "county": "Cocke County",
      "city": "Parrottsville",
      "cuisine": "Pizza",
      "price_range": "$",
      "rating": 4.0,
      "review_count": 45,
      "address": "Parrottsville, TN 37843",
      "phone": "(423) 623-6789",
      "website": "",
      "hours": "Daily: 11:00 AM - 9:00 PM",
      "amenities": [
        "Pizza",
        "Local",
        "Family Friendly",
        "Takeout"
      ],
      "featured": false,
      "description": "Local pizza restaurant with family-friendly atmosphere and takeout options."
    },
    {
      "id": 144,
      "name": "CJ Papadops",
      "county": "Cocke County",
      "city": "Parrottsville",
      "cuisine": "American",
      "price_range": "$$",
      "rating": 4.1,
      "review_count": 78,
      "address": "Parrottsville, TN 37843",
      "phone": "(423) 623-7890",
      "website": "",
      "hours": "Daily: 11:00 AM - 9:00 PM",
      "amenities": [
        "Local",
        "Casual",
        "Family Friendly",
        "American"
      ],
      "featured": false,
      "description": "Local restaurant with casual atmosphere and family-friendly American cuisine."
    },
    {
      "id": 145,
      "name": "Davy Crockett Restaurant",
      "county": "Cocke County",
      "city": "Newport",
      "cuisine": "American",
      "price_range": "$$",
      "rating": 4.0,
      "review_count": 134,
      "address": "Newport, TN 37821",
      "phone": "(423) 623-8901",
      "website": "",
      "hours": "Daily: 7:00 AM - 9:00 PM",
      "amenities": [
        "Historic",
        "American",
        "Local Legend",
        "Comfort Food"
      ],
      "featured": false,
      "description": "Historic restaurant named after local legend Davy Crockett, serving American comfort food."
    },
    {
      "id": 146,
      "name": "Green Tomato Grill",
      "county": "Cocke County",
      "city": "Newport",
      "cuisine": "American",
      "price_range": "$$",
      "rating": 4.2,
      "review_count": 89,
      "address": "Newport, TN 37821",
      "phone": "(423) 623-9012",
      "website": "",
      "hours": "Daily: 11:00 AM - 9:00 PM",
      "amenities": [
        "Southern",
        "Grill",
        "Local",
        "Fresh"
      ],
      "featured": false,
      "description": "Southern grill with fresh ingredients and local atmosphere."
    },
    {
      "id": 147,
      "name": "Wonderfully Made",
      "county": "Cocke County",
      "city": "Newport",
      "cuisine": "American",
      "price_range": "$",
      "rating": 4.1,
      "review_count": 56,
      "address": "Newport, TN 37821",
      "phone": "(423) 623-0123",
      "website": "",
      "hours": "Mon-Sat: 8:00 AM - 6:00 PM, Closed Sun",
      "amenities": [
        "Local",
        "Homemade",
        "Fresh",
        "Christian"
      ],
      "featured": false,
      "description": "Local restaurant with homemade food and Christian atmosphere."
    },
    {
      "id": 148,
      "name": "Subway",
      "county": "Cocke County",
      "city": "Newport",
      "cuisine": "American",
      "price_range": "$",
      "rating": 3.8,
      "review_count": 67,
      "address": "Newport, TN 37821",
      "phone": "(423) 623-1234",
      "website": "www.subway.com",
      "hours": "Daily: 7:00 AM - 10:00 PM",
      "amenities": [
        "Sandwiches",
        "Quick Service",
        "Healthy Options",
        "Chain"
      ],
      "featured": false,
      "description": "Fresh sandwiches made to order with healthy options."
    },
    {
      "id": 149,
      "name": "Bamboo Garden",
      "county": "Cocke County",
      "city": "Newport",
      "cuisine": "Chinese",
      "price_range": "$$",
      "rating": 4.0,
      "review_count": 89,
      "address": "Newport, TN 37821",
      "phone": "(423) 623-2345",
      "website": "",
      "hours": "Daily: 11:00 AM - 9:00 PM",
      "amenities": [
        "Chinese",
        "Asian",
        "Local",
        "Takeout"
      ],
      "featured": false,
      "description": "Local Chinese restaurant with authentic Asian cuisine and takeout options."
    },
    {
      "id": 150,
      "name": "Domino's",
      "county": "Cocke County",
      "city": "Newport",
      "cuisine": "Pizza",
      "price_range": "$",
      "rating": 3.9,
      "review_count": 123,
      "address": "Newport, TN 37821",
      "phone": "(423) 623-3456",
      "website": "www.dominos.com",
      "hours": "Daily: 10:00 AM - 12:00 AM",
      "amenities": [
        "Pizza",
        "Delivery",
        "Chain",
        "Quick Service"
      ],
      "featured": false,
      "description": "Pizza delivery chain with quick service and online ordering."
    }
  ],
  "stats": {
    "restaurant_count": 150,
    "total_reviews": 103696,
    "average_rating": 4.3,
    "counties": 6
  },
  "counties": [
    "Blount County",
    "Cocke County",
    "Hamblen County",
    "Jefferson County",
    "Knox County",
    "Sevier County"
  ],
  "cuisines": [
    "American",
    "American Steakhouse",
    "Asian",
    "BBQ",
    "Chinese",
    "Coffee",
    "Fast Food",
    "Indian",
    "Italian",
    "Japanese",
    "Mediterranean",
    "Mexican",
    "Mexican Fast Food",
    "Middle Eastern",
    "Pizza",
    "Seafood",
    "Southern",
    "Steakhouse"
  ]
}